[{"id":"p16","title":"Victoria Falls","image":{"src":"victoria-falls.jpg","alt":"The powerful cascade of Victoria Falls, a natural wonder between Zambia and Zimbabwe."},"lat":-17.9243,"lon":25.8572},{"id":"p13","title":"Taj Mahal","image":{"src":"taj-mahal.jpg","alt":"The iconic Taj Mahal reflecting in its surrounding waters during sunrise."},"lat":27.1751,"lon":78.0421},{"id":"p3","title":"Himalayan Peaks","image":{"src":"majestic-mountains.jpg","alt":"The sun setting behind snow-capped peaks of majestic mountains."},"lat":27.9881,"lon":86.925},{"id":"p5","title":"Ancient Grecian Ruins","image":{"src":"ruins.jpg","alt":"Historic ruins standing tall against the backdrop of the Grecian sky."},"lat":37.9715,"lon":23.7257},{"id":"p18","title":"Amazon River","image":{"src":"amazon-river.jpg","alt":"Navigating the waters of the Amazon River, surrounded by dense rainforest."},"lat":-3.4653,"lon":-58.38},{"id":"p4","title":"Caribbean Beach","image":{"src":"caribbean-beach.jpg","alt":"Pristine white sand and turquoise waters of a Caribbean beach."},"lat":18.2208,"lon":-66.5901},{"id":"p6","title":"Amazon Rainforest Canopy","image":{"src":"rainforest.jpg","alt":"Lush canopy of a rainforest, teeming with life."},"lat":-3.4653,"lon":-62.2159},{"id":"p9","title":"Great Barrier Reef","image":{"src":"great-barrier-reef.jpg","alt":"Vibrant coral formations of the Great Barrier Reef underwater."},"lat":-18.2871,"lon":147.6992},{"id":"p7","title":"Northern Lights","image":{"src":"northern-lights.jpg","alt":"Dazzling display of the Northern Lights in a starry sky."},"lat":64.9631,"lon":-19.0208}]